{"type": "FeatureCollection", "features": [{"type": "Feature", "properties": {"name": "Ardmore", "kind": "main", "display": "Ardmore Elementary", "type_label": "Attendance-area school", "info": {"programs": [], "enroll_current": 420, "enroll_year": "2017-18", "capacity": 506, "utilization": 83}}, "geometry": {"type": "Point", "coordinates": [-122.117467, 47.639591]}}, {"type": "Feature", "properties": {"name": "Bennett", "kind": "main", "display": "Bennett Elementary", "type_label": "Attendance-area school", "info": {"programs": [], "enroll_current": 435, "enroll_year": "2017-18", "capacity": 621, "utilization": 70}}, "geometry": {"type": "Point", "coordinates": [-122.138731, 47.61226]}}, {"type": "Feature", "properties": {"name": "Cherry Crest", "kind": "main", "display": "Cherry Crest Elementary", "type_label": "Attendance-area school", "info": {"programs": [], "enroll_current": 649, "enroll_year": "2017-18", "capacity": 621, "utilization": 105}}, "geometry": {"type": "Point", "coordinates": [-122.173832, 47.640434]}}, {"type": "Feature", "properties": {"name": "Clyde Hill", "kind": "main", "display": "Clyde Hill Elementary", "type_label": "Attendance-area school", "info": {"programs": [], "enroll_current": 619, "enroll_year": "2017-18", "capacity": 650, "utilization": 95}}, "geometry": {"type": "Point", "coordinates": [-122.211361, 47.63083]}}, {"type": "Feature", "properties": {"name": "Eastgate", "kind": "main", "display": "Eastgate Elementary", "type_label": "Attendance-area school", "info": {"programs": [], "enroll_current": 460, "enroll_year": "2017-18", "capacity": 529, "utilization": 87, "role": "later closed in the 2023 consolidation"}}, "geometry": {"type": "Point", "coordinates": [-122.137628, 47.570069]}}, {"type": "Feature", "properties": {"name": "Enatai", "kind": "main", "display": "Enatai Elementary", "type_label": "Attendance-area school", "info": {"programs": [], "enroll_current": 587, "enroll_year": "2017-18", "capacity": 575, "utilization": 102}}, "geometry": {"type": "Point", "coordinates": [-122.198366, 47.589144]}}, {"type": "Feature", "properties": {"name": "Lake Hills", "kind": "main", "display": "Lake Hills Elementary", "type_label": "Attendance-area school", "info": {"programs": [], "enroll_current": 502, "enroll_year": "2017-18", "capacity": 552, "utilization": 91}}, "geometry": {"type": "Point", "coordinates": [-122.148762, 47.601098]}}, {"type": "Feature", "properties": {"name": "Medina", "kind": "main", "display": "Medina Elementary", "type_label": "Attendance-area school", "info": {"programs": [], "enroll_current": 496, "enroll_year": "2017-18", "capacity": 483, "utilization": 103}}, "geometry": {"type": "Point", "coordinates": [-122.233833, 47.616744]}}, {"type": "Feature", "properties": {"name": "Newport Heights", "kind": "main", "display": "Newport Heights Elementary", "type_label": "Attendance-area school", "info": {"programs": [], "enroll_current": 599, "enroll_year": "2017-18", "capacity": 621, "utilization": 96}}, "geometry": {"type": "Point", "coordinates": [-122.171468, 47.552183]}}, {"type": "Feature", "properties": {"name": "Phantom Lake", "kind": "main", "display": "Phantom Lake Elementary", "type_label": "Attendance-area school", "info": {"programs": [], "enroll_current": 417, "enroll_year": "2017-18", "capacity": 598, "utilization": 70}}, "geometry": {"type": "Point", "coordinates": [-122.125595, 47.60032]}}, {"type": "Feature", "properties": {"name": "Sherwood Forest", "kind": "main", "display": "Sherwood Forest Elementary", "type_label": "Attendance-area school", "info": {"programs": [], "enroll_current": 428, "enroll_year": "2017-18", "capacity": 483, "utilization": 89}}, "geometry": {"type": "Point", "coordinates": [-122.120343, 47.630858]}}, {"type": "Feature", "properties": {"name": "Somerset", "kind": "main", "display": "Somerset Elementary", "type_label": "Attendance-area school", "info": {"programs": [], "enroll_current": 721, "enroll_year": "2017-18", "capacity": 690, "utilization": 104}}, "geometry": {"type": "Point", "coordinates": [-122.151828, 47.563241]}}, {"type": "Feature", "properties": {"name": "Spiritridge", "kind": "main", "display": "Spiritridge Elementary", "type_label": "Attendance-area school", "info": {"programs": [], "enroll_current": 697, "enroll_year": "2017-18", "capacity": 529, "utilization": 132}}, "geometry": {"type": "Point", "coordinates": [-122.120123, 47.587901]}}, {"type": "Feature", "properties": {"name": "Stevenson", "kind": "main", "display": "Stevenson Elementary", "type_label": "Attendance-area school", "info": {"programs": [], "enroll_current": 546, "enroll_year": "2017-18", "capacity": 650, "utilization": 84}}, "geometry": {"type": "Point", "coordinates": [-122.150647, 47.617838]}}, {"type": "Feature", "properties": {"name": "Woodridge", "kind": "main", "display": "Woodridge Elementary", "type_label": "Attendance-area school", "info": {"programs": [], "enroll_current": 676, "enroll_year": "2017-18", "capacity": 529, "utilization": 128}}, "geometry": {"type": "Point", "coordinates": [-122.172876, 47.591957]}}, {"type": "Feature", "properties": {"name": "Jing Mei", "kind": "choice", "display": "Jing Mei Elementary", "type_label": "Choice / immersion school", "info": {"programs": [], "enroll_current": 369, "enroll_year": "2017-18"}}, "geometry": {"type": "Point", "coordinates": [-122.171361, 47.55148]}}, {"type": "Feature", "properties": {"name": "Puesta Del Sol", "kind": "choice", "display": "Puesta Del Sol Elementary", "type_label": "Choice / immersion school", "info": {"programs": [], "enroll_current": 563, "enroll_year": "2017-18"}}, "geometry": {"type": "Point", "coordinates": [-122.163838, 47.575881]}}]}